{"Mangawhai":{"default":{"Lat":-36.1261904,"Lon":174.5744737,"Data":[{"Name":"Sandbar and Grill","Address":"7 Wood Street","Lat":-36.094282572022,"Lon":174.58696742959,"City":"Mangawhai","Suburb":"default"},{"Name":"Bennetts of Mangawhai","Address":"52 Moir Street","Lat":-36.126525,"Lon":174.5731213,"City":"Mangawhai","Suburb":"default"}]}},"Whangarei":{"Kensington":{"Lat":0,"Lon":0,"Data":[{"Name":"Liquorland Kensington","Address":"3 Kensington Ave","Lat":-35.7088292,"Lon":174.3206685,"City":"Whangarei","Suburb":"Kensington"}]}},"Waipu":{"default":{"Lat":0,"Lon":0,"Data":[{"Name":"Four Square","Address":"43 The Centre","Lat":-35.984340593073,"Lon":174.44491270489,"City":"Waipu","Suburb":"default"},{"Name":"Thirsty Liquor","Address":"15 The Centre","Lat":-35.9846816,"Lon":174.4463359,"City":"Waipu","Suburb":"default"}]}},"Kerikeri":{"default":{"Lat":0,"Lon":0,"Data":[{"Name":"Liquorland","Address":"52 Kerikeri Road","Lat":-35.2298868,"Lon":173.9465709,"City":"Kerikeri","Suburb":"default"}]}},"Auckland":{"Remuera":{"Lat":0,"Lon":0,"Data":[{"Name":"New World","Address":"10 Clonbern Rd","Lat":-36.8819007,"Lon":174.7976545,"City":"Auckland","Suburb":"Remuera"},{"Name":"Glengarry","Address":"400 Remuera Road","Lat":-36.8806618,"Lon":174.7988054,"City":"Auckland","Suburb":"Remuera"}]},"Orewa":{"Lat":0,"Lon":0,"Data":[{"Name":"New World","Address":"11 Moana Ave","Lat":-36.5865423,"Lon":174.6936253,"City":"Auckland","Suburb":"Orewa"}]},"Milford":{"Lat":0,"Lon":0,"Data":[{"Name":"New World","Address":"141 Kitchener Rd","Lat":-36.772461586242,"Lon":174.76472999815,"City":"Auckland","Suburb":"Milford"},{"Name":"Frog in a Barrel","Address":"172 Kitchener Rd","Lat":-36.772839436942,"Lon":174.76544952275,"City":"Auckland","Suburb":"Milford"}]},"Victoria Park":{"Lat":0,"Lon":0,"Data":[{"Name":"New World","Address":"2 College Hill","Lat":-36.8485776,"Lon":174.7512366,"City":"Auckland","Suburb":"Victoria Park"},{"Name":"Glengarry","Address":"Corner Sale and Wellesley Street","Lat":-36.848918914454,"Lon":174.75713157505,"City":"Auckland","Suburb":"Victoria Park"}]},"Eastridge":{"Lat":0,"Lon":0,"Data":[{"Name":"New World","Address":"209 Kepa Road","Lat":-36.861008068137,"Lon":174.82873384471,"City":"Auckland","Suburb":"Eastridge"}]},"Devonport":{"Lat":0,"Lon":0,"Data":[{"Name":"New World","Address":"35 Bartley Road","Lat":-36.829493024789,"Lon":174.79646688532,"City":"Auckland","Suburb":"Devonport"},{"Name":"Glengarry","Address":"Cnr Clarence Street & Wynyard Street","Lat":-36.830515708618,"Lon":174.7966845352,"City":"Auckland","Suburb":"Devonport"},{"Name":"Bette's","Address":"8 Victoria Road","Lat":-36.8306301,"Lon":174.7980183,"City":"Auckland","Suburb":"Devonport"}]},"Takapuna":{"Lat":0,"Lon":0,"Data":[{"Name":"New World","Address":"371 Lake Rd","Lat":-36.796661660993,"Lon":174.77815117672,"City":"Auckland","Suburb":"Takapuna"},{"Name":"Glengarry","Address":"Cnr Hurstmere Road & Killarney Street","Lat":-36.782922124777,"Lon":174.77364215211,"City":"Auckland","Suburb":"Takapuna"}]},"Papakura":{"Lat":0,"Lon":0,"Data":[{"Name":"New World","Address":"40 East Street","Lat":-37.06486628615,"Lon":174.94264110556,"City":"Auckland","Suburb":"Papakura"}]},"Browns Bay":{"Lat":0,"Lon":0,"Data":[{"Name":"New World","Address":"8 Bute Road","Lat":-36.7143042,"Lon":174.7462184,"City":"Auckland","Suburb":"Browns Bay"},{"Name":"Deep Creek Brewing","Address":"111 Clyde Road","Lat":-36.713662151924,"Lon":174.74856209385,"City":"Auckland","Suburb":"Browns Bay"}]},"Stonefields":{"Lat":0,"Lon":0,"Data":[{"Name":"New World","Address":"100 Lunn Avenue","Lat":-36.890191952258,"Lon":174.83192766243,"City":"Auckland","Suburb":"Stonefields"}]},"Auckland City":{"Lat":0,"Lon":0,"Data":[{"Name":"New World Metro","Address":"125 Queen Street","Lat":-36.846476575166,"Lon":174.76592167242,"City":"Auckland","Suburb":"Auckland City"},{"Name":"Glengarry","Address":"Corner Wellesley St and Mayoral Drive","Lat":-36.851129629499,"Lon":174.76224922986,"City":"Auckland","Suburb":"Auckland City"},{"Name":"Bonz Cajun Kitchen","Address":"Elliot Street","Lat":-36.849954740359,"Lon":174.76367589259,"City":"Auckland","Suburb":"Auckland City"},{"Name":"Cafe Hanoi","Address":"Cnr Galway and Commerce Streets","Lat":-36.844698174009,"Lon":174.76825689207,"City":"Auckland","Suburb":"Auckland City"},{"Name":"Andrew Andrew","Address":"201 Quay Street","Lat":-36.842156297978,"Lon":174.76462190996,"City":"Auckland","Suburb":"Auckland City"},{"Name":"Merchants of Venice","Address":"37-49 Jellicoe Street","Lat":-36.840297907679,"Lon":174.75508307665,"City":"Auckland","Suburb":"Auckland City"},{"Name":"Mikano Restaurant & Bar","Address":"1 Solent Street","Lat":-36.8473733,"Lon":174.7880737,"City":"Auckland","Suburb":"Auckland City"},{"Name":"Monsoon Poon","Address":"11-27 Customs Street","Lat":-36.8440449,"Lon":174.7659534,"City":"Auckland","Suburb":"Auckland City"},{"Name":"My Bar","Address":"12 Durham Street East","Lat":-36.8484158,"Lon":174.7662534,"City":"Auckland","Suburb":"Auckland City"},{"Name":"Rakinos","Address":"Level 1\/35 High Street","Lat":-36.847858432736,"Lon":174.76641800675,"City":"Auckland","Suburb":"Auckland City"},{"Name":"Vivace","Address":"Level 1\/50 High Street","Lat":-36.848417286051,"Lon":174.76645103373,"City":"Auckland","Suburb":"Auckland City"},{"Name":"Waterfront","Address":"161-171 Quay Street","Lat":-36.842454459739,"Lon":174.76381371856,"City":"Auckland","Suburb":"Auckland City"},{"Name":"Xuxu","Address":"Cnr Galway & Commerce Street","Lat":-36.844816151449,"Lon":174.76818763942,"City":"Auckland","Suburb":"Auckland City"},{"Name":"O'Carrolls Freehouse","Address":"10 Vulcan Lane","Lat":-36.8470525,"Lon":174.7664493,"City":"Auckland","Suburb":"Auckland City"},{"Name":"Brothers Beer","Address":"90 Wellesley Street","Lat":-36.8513513,"Lon":174.7656796,"City":"Auckland","Suburb":"Auckland City"},{"Name":"Tonic Bar","Address":"270 Karangahape Raod","Lat":-36.8579423,"Lon":174.7585063,"City":"Auckland","Suburb":"Auckland City"},{"Name":"Velvet Burger","Address":"18 Fort Street","Lat":-36.8460225,"Lon":174.7672659,"City":"Auckland","Suburb":"Auckland City"},{"Name":"The Black Hoof","Address":"12 Wyndham St (Level 1)","Lat":-36.84739618644,"Lon":174.76500721227,"City":"Auckland","Suburb":"Auckland City"},{"Name":"CityLife Hotel ","Address":"171 Queen St","Lat":-36.847989874922,"Lon":174.76555434114,"City":"Auckland","Suburb":"Auckland City"}]},"Birkenhead":{"Lat":0,"Lon":0,"Data":[{"Name":"New World","Address":"180 Mokaia Road","Lat":-36.8111221,"Lon":174.7115974,"City":"Auckland","Suburb":"Birkenhead"}]},"Albany":{"Lat":0,"Lon":0,"Data":[{"Name":"Farro Fresh","Address":"Constellation Drive & Parkway Drive","Lat":-36.750315992674,"Lon":174.72868710976,"City":"Auckland","Suburb":"Albany"}]},"Silverdale":{"Lat":0,"Lon":0,"Data":[{"Name":"Pak n Save","Address":"20 Hibiscus Coast Highway","Lat":-36.6209299,"Lon":174.672893,"City":"Auckland","Suburb":"Silverdale"}]},"Royal Oak":{"Lat":0,"Lon":0,"Data":[{"Name":"Coco Restaurant","Address":"126 Symonds Street","Lat":-36.9126274,"Lon":174.775873,"City":"Auckland","Suburb":"Royal Oak"}]},"Pukekohe":{"Lat":0,"Lon":0,"Data":[{"Name":"Bottle-O Pukekohe","Address":"16 Stadium Drive","Lat":-37.2001399,"Lon":174.9078548,"City":"Auckland","Suburb":"Pukekohe"}]},"Ponsonby":{"Lat":0,"Lon":0,"Data":[{"Name":"Glengarry","Address":"54 Jervois Road","Lat":-36.8464267,"Lon":174.7423384,"City":"Auckland","Suburb":"Ponsonby"},{"Name":"Glengarry","Address":"139 Ponsonby Road","Lat":-36.855187622585,"Lon":174.74637557487,"City":"Auckland","Suburb":"Ponsonby"},{"Name":"Bonita","Address":"242 Ponsonby Road","Lat":-36.851896817159,"Lon":174.7447630902,"City":"Auckland","Suburb":"Ponsonby"},{"Name":"Mekong Baby","Address":"262 Ponsonby Road","Lat":-36.850794901953,"Lon":174.74440628161,"City":"Auckland","Suburb":"Ponsonby"},{"Name":"Herne Bay Cellars","Address":"182 Jervois Road","Lat":-36.845469720021,"Lon":174.73638048651,"City":"Auckland","Suburb":"Ponsonby"},{"Name":"Grand Central","Address":"126 Ponsonby Road","Lat":-36.8570585,"Lon":174.7475214,"City":"Auckland","Suburb":"Ponsonby"},{"Name":"3 Lamps Bar & Eatery","Address":"1-3 St Mary's Bay Road","Lat":-36.847262278014,"Lon":174.74443509549,"City":"Auckland","Suburb":"Ponsonby"},{"Name":"Thirsty Dog","Address":"469 Karangahape Rd","Lat":-36.858360798392,"Lon":174.75514716442,"City":"Auckland","Suburb":"Ponsonby"}]},"Mt Eden":{"Lat":0,"Lon":0,"Data":[{"Name":"Glengarry","Address":"250 Dominion Road","Lat":-36.8766995,"Lon":174.7510497,"City":"Auckland","Suburb":"Mt Eden"},{"Name":"Galbraiths Ale House","Address":"2 Mt Eden Road","Lat":-36.8656444,"Lon":174.7611842,"City":"Auckland","Suburb":"Mt Eden"},{"Name":"Liquorland","Address":"346 Dominion Road","Lat":-36.8791962,"Lon":174.7501624,"City":"Auckland","Suburb":"Mt Eden"},{"Name":"The Village Winery","Address":"417 Mt Eden Road","Lat":-36.881314,"Lon":174.7618099,"City":"Auckland","Suburb":"Mt Eden"}]},"Newmarket":{"Lat":0,"Lon":0,"Data":[{"Name":"Glengarry","Address":"22 Morrow Street","Lat":-36.870120484767,"Lon":174.77572027791,"City":"Auckland","Suburb":"Newmarket"},{"Name":"The Lumsden","Address":"444-448 Khyber Pass","Lat":-36.867434701065,"Lon":174.77756661653,"City":"Auckland","Suburb":"Newmarket"},{"Name":"Tasca","Address":"25 Nuffield Street","Lat":-36.871363657263,"Lon":174.77785819388,"City":"Auckland","Suburb":"Newmarket"}]},"Kingsland":{"Lat":0,"Lon":0,"Data":[{"Name":"Kingsland Liquor Centre","Address":"384 New North Rd","Lat":-36.870597115891,"Lon":174.74835366316,"City":"Auckland","Suburb":"Kingsland"},{"Name":"Glengarry","Address":"420 New North Road","Lat":-36.8719265,"Lon":174.7460354,"City":"Auckland","Suburb":"Kingsland"},{"Name":"Taiko Japanese Restaurant","Address":"460 New North Rd","Lat":-36.872207948863,"Lon":174.74454936686,"City":"Auckland","Suburb":"Kingsland"}]},"Westmere":{"Lat":0,"Lon":0,"Data":[{"Name":"Glengarry","Address":"164 Garnet Road","Lat":-36.854160203433,"Lon":174.71815128528,"City":"Auckland","Suburb":"Westmere"}]},"Ellerslie":{"Lat":0,"Lon":0,"Data":[{"Name":"Glengarry","Address":"Unit 1, 87-93 Main Highway","Lat":-36.897821240141,"Lon":174.80879954173,"City":"Auckland","Suburb":"Ellerslie"}]},"Grey Lynn":{"Lat":0,"Lon":0,"Data":[{"Name":"Glengarry","Address":"16 Williamson Avenue","Lat":-36.858731851957,"Lon":174.7480812828,"City":"Auckland","Suburb":"Grey Lynn"},{"Name":"Farro Fresh","Address":"34 Westmoreland Street West","Lat":-36.8555972,"Lon":174.7329196,"City":"Auckland","Suburb":"Grey Lynn"}]},"Parnell":{"Lat":0,"Lon":0,"Data":[{"Name":"Glengarry","Address":"164 Parnell Road","Lat":-36.853914158791,"Lon":174.7796424871,"City":"Auckland","Suburb":"Parnell"},{"Name":"Cibo","Address":"91 St Georges Bay Road","Lat":-36.8523349,"Lon":174.7827472,"City":"Auckland","Suburb":"Parnell"}]},"Mt Wellington":{"Lat":0,"Lon":0,"Data":[{"Name":"Farro Fresh","Address":"80 Lunn Ave","Lat":-36.8907064,"Lon":174.8339511,"City":"Auckland","Suburb":"Mt Wellington"},{"Name":"Fine Wine Delivery Co","Address":"42 Lunn Avenue","Lat":-36.8931538,"Lon":174.8375503,"City":"Auckland","Suburb":"Mt Wellington"}]},"St Heliers":{"Lat":0,"Lon":0,"Data":[{"Name":"Annabelles","Address":"409 Tamaki Drive","Lat":-36.850264622834,"Lon":174.85772784355,"City":"Auckland","Suburb":"St Heliers"}]},"Howick":{"Lat":0,"Lon":0,"Data":[{"Name":"Liquorland","Address":"287 Botany Road","Lat":-36.9236803,"Lon":174.9125407,"City":"Auckland","Suburb":"Howick"},{"Name":"Super Liquor","Address":"23 Uxbridge Road","Lat":-36.894189229493,"Lon":174.93163643174,"City":"Auckland","Suburb":"Howick"}]},"Rothesay Bay":{"Lat":0,"Lon":0,"Data":[{"Name":"The Wine Barrel","Address":"599 Beach Road","Lat":-36.7264555,"Lon":174.7475671,"City":"Auckland","Suburb":"Rothesay Bay"}]},"Northcote Point":{"Lat":0,"Lon":0,"Data":[{"Name":"Point Wines","Address":"141 Queen Street","Lat":-36.815939428543,"Lon":174.7456167454,"City":"Auckland","Suburb":"Northcote Point"}]},"Glenfield":{"Lat":0,"Lon":0,"Data":[{"Name":"Glenfield Liquor","Address":"Cnr Glenfeild & Downing Street","Lat":-36.783472080233,"Lon":174.72228889762,"City":"Auckland","Suburb":"Glenfield"}]},"Greenhithe":{"Lat":0,"Lon":0,"Data":[{"Name":"Liquor Centre","Address":"8 Greenhithe Road","Lat":-36.775862129904,"Lon":174.67054195404,"City":"Auckland","Suburb":"Greenhithe"}]},"Manukau":{"Lat":0,"Lon":0,"Data":[{"Name":"Liquor Centre Manukau","Address":"4\/70 Everglade Drive","Lat":-36.9982092,"Lon":174.8945642,"City":"Auckland","Suburb":"Manukau"}]},"Meadowbank":{"Lat":0,"Lon":0,"Data":[{"Name":"Liquor Centre Meadowbank","Address":"18 St Johns Road","Lat":-36.8763428,"Lon":174.8262675,"City":"Auckland","Suburb":"Meadowbank"}]},"Northcross":{"Lat":0,"Lon":0,"Data":[{"Name":"Liquorland","Address":"Cnr Carlisle and East Coast Bays Road","Lat":-36.709592601046,"Lon":174.72869898305,"City":"Auckland","Suburb":"Northcross"}]},"Westhaven":{"Lat":0,"Lon":0,"Data":[{"Name":"Swashbucklers","Address":"23B Westhaven Drive","Lat":-36.844079892283,"Lon":174.75185294086,"City":"Auckland","Suburb":"Westhaven"}]},"Kumeu":{"Lat":0,"Lon":0,"Data":[{"Name":"Boric Food market","Address":"1404 Coatesville-Riverhead Hwy","Lat":-36.786649,"Lon":174.583224,"City":"Auckland","Suburb":"Kumeu"},{"Name":"New World Kumeu","Address":"110 Main Road","Lat":-36.7750368,"Lon":174.5539304,"City":"Auckland","Suburb":"Kumeu"}]},"Half Moon Bay":{"Lat":0,"Lon":0,"Data":[{"Name":"Fresh Choice - Half Moon Bay","Address":"1 Ara Tai Road","Lat":-36.881027572884,"Lon":174.89898927277,"City":"Auckland","Suburb":"Half Moon Bay"}]},"Beachlands":{"Lat":0,"Lon":0,"Data":[{"Name":"Liquorland","Address":"41 Third Ave","Lat":-36.883102,"Lon":174.9970142,"City":"Auckland","Suburb":"Beachlands"}]},"Waiheke Island":{"Lat":0,"Lon":0,"Data":[{"Name":"Four Square","Address":"151 Oceanview Road","Lat":-36.782629762652,"Lon":175.00980940549,"City":"Auckland","Suburb":"Waiheke Island"}]},"Henderson":{"Lat":0,"Lon":0,"Data":[{"Name":"Gilmores","Address":"133 Central Park Drive","Lat":-36.854016859131,"Lon":174.63734575198,"City":"Auckland","Suburb":"Henderson"}]},"Mt Roskill":{"Lat":0,"Lon":0,"Data":[{"Name":"Gilmores","Address":"103 - 105 May Road","Lat":-36.911578,"Lon":174.7321735,"City":"Auckland","Suburb":"Mt Roskill"}]},"Onehunga":{"Lat":0,"Lon":0,"Data":[{"Name":"Liquorland","Address":"267A Onehunga Mall","Lat":-36.9204875,"Lon":174.7852699,"City":"Auckland","Suburb":"Onehunga"}]}},"Matakana":{"default":{"Lat":-36.3522309,"Lon":174.7175757,"Data":[{"Name":"Matakana Market Kitchen","Address":"2 Matakana Valley Road","Lat":-36.351773232164,"Lon":174.71770865715,"City":"Matakana","Suburb":"default"},{"Name":"The Matakana Store","Address":"21 Matakana Valley Road","Lat":-36.3518982,"Lon":174.7168768,"City":"Matakana","Suburb":"default"},{"Name":"Liquor Centre","Address":"993 Matakana Road","Lat":-36.353057,"Lon":174.7171783,"City":"Matakana","Suburb":"default"},{"Name":"The Vintry","Address":"2 Matakana Valley Road","Lat":-36.351775486275,"Lon":174.71771923929,"City":"Matakana","Suburb":"default"},{"Name":"The Stables","Address":"1151 Leigh Road","Lat":-36.3410587,"Lon":174.7342807,"City":"Matakana","Suburb":"default"},{"Name":"Matakana Village Pub","Address":"11 Matakana Valley Road","Lat":-36.352078002717,"Lon":174.71721349696,"City":"Matakana","Suburb":"default"},{"Name":"The Pottery Cafe","Address":"48 Tongue Farm Road","Lat":-36.3548058,"Lon":174.7216496,"City":"Matakana","Suburb":"default"}]}},"Snells Beach":{"default":{"Lat":-36.4204551,"Lon":174.7240638,"Data":[{"Name":"Mahurangi River Winery","Address":"162 Hamilton Road","Lat":-36.4120109,"Lon":174.7032113,"City":"Snells Beach","Suburb":"default"}]}},"Warkworth":{"default":{"Lat":-36.3986866,"Lon":174.6605093,"Data":[{"Name":"Kowhai Liquor","Address":"22 Whitaker Road","Lat":-36.4010791,"Lon":174.6620818,"City":"Warkworth","Suburb":"default"},{"Name":"New World","Address":"6 Percy St","Lat":-36.3983755,"Lon":174.6661588,"City":"Warkworth","Suburb":"default"},{"Name":"The Cider Shed Cafe","Address":"182 State Highway 1","Lat":-36.3807322,"Lon":174.6369808,"City":"Warkworth","Suburb":"default"},{"Name":"Mahurangi Rugby Club","Address":"State Highway 1","Lat":-36.390991263825,"Lon":174.65257454341,"City":"Warkworth","Suburb":"default"}]}},"Leigh":{"default":{"Lat":-36.2913656,"Lon":174.802968,"Data":[{"Name":"Leigh Sawmill Cafe","Address":"142 Pakiri Road","Lat":-36.289331813672,"Lon":174.79851025687,"City":"Leigh","Suburb":"default"}]}},"Kumeu":{"default":{"Lat":-36.7772623,"Lon":174.5588019,"Data":[{"Name":"Liquor Centre Kumeu Cellars","Address":"88 Main Road","Lat":-36.7759751,"Lon":174.5559718,"City":"Kumeu","Suburb":"default"}]}},"Omaha":{"default":{"Lat":-36.3301625,"Lon":174.7748175,"Data":[{"Name":"Omaha Beach Superette","Address":"1 Matariki Street","Lat":-36.33986543737,"Lon":174.77925778043,"City":"Omaha","Suburb":"default"}]}},"Wellsford":{"default":{"Lat":0,"Lon":0,"Data":[{"Name":"Cafe Donna","Address":"172 Rodney Street","Lat":-36.2939491,"Lon":174.524078,"City":"Wellsford","Suburb":"default"}]}},"Colville":{"default":{"Lat":-36.6319214,"Lon":175.4740004,"Data":[{"Name":"Green Snapper Cafe","Address":"3547 Colville Road","Lat":-36.6171294,"Lon":175.4674468,"City":"Colville","Suburb":"default"}]}},"Te Awamutu":{"default":{"Lat":0,"Lon":0,"Data":[{"Name":"Fresh Choice","Address":"39 Rewi Street","Lat":-38.00925,"Lon":175.3209405,"City":"Te Awamutu","Suburb":"default"}]}},"Cambridge":{"default":{"Lat":0,"Lon":0,"Data":[{"Name":"Fresh Choice - Leamington","Address":"46 Burns Street","Lat":-37.905403575952,"Lon":175.4731524576,"City":"Cambridge","Suburb":"default"},{"Name":"The Cambridge Fine Wine Compan","Address":"72B Victoria Street","Lat":-37.893581983327,"Lon":175.46900842943,"City":"Cambridge","Suburb":"default"},{"Name":"Liquorland","Address":"26 Victoria St","Lat":-37.8962646,"Lon":175.4715594,"City":"Cambridge","Suburb":"default"}]}},"Cooks Beach":{"default":{"Lat":0,"Lon":0,"Data":[{"Name":"Cooks Beach Liquor Store","Address":"23 Captain Cook Road","Lat":-36.8388062,"Lon":175.7417107,"City":"Cooks Beach","Suburb":"default"},{"Name":"Go Vino","Address":"19 Captain Cook Road","Lat":-36.8387322,"Lon":175.7413942,"City":"Cooks Beach","Suburb":"default"}]}},"Hamilton":{"default":{"Lat":43.2500208,"Lon":-79.8660914,"Data":[{"Name":"Domaine Eatery","Address":"575 Victoria Street","Lat":-37.7846656,"Lon":175.279982,"City":"Hamilton","Suburb":"default"}]},"Rototuna":{"Lat":0,"Lon":0,"Data":[{"Name":"New World","Address":"44 Horsham Downs","Lat":-37.728274979332,"Lon":175.27398949577,"City":"Hamilton","Suburb":"Rototuna"}]},"Hillcrest":{"Lat":0,"Lon":0,"Data":[{"Name":"New World","Address":"280 Cambridge Road","Lat":-37.8019904,"Lon":175.3222727,"City":"Hamilton","Suburb":"Hillcrest"}]},"Te Rapa":{"Lat":0,"Lon":0,"Data":[{"Name":"New World","Address":"751 Te Rapa Road","Lat":-37.753050146771,"Lon":175.24001932275,"City":"Hamilton","Suburb":"Te Rapa"}]},"Hamilton City":{"Lat":0,"Lon":0,"Data":[{"Name":"Pak n Save","Address":"Mill Street","Lat":-37.7801525486,"Lon":175.27234632964,"City":"Hamilton","Suburb":"Hamilton City"}]},"Dinsdale":{"Lat":0,"Lon":0,"Data":[{"Name":"Liquorland","Address":"104 Whatawhata Road","Lat":-37.796503115568,"Lon":175.23983855554,"City":"Hamilton","Suburb":"Dinsdale"}]},"Eastside":{"Lat":0,"Lon":0,"Data":[{"Name":"Liquorland","Address":"319 Grey Street","Lat":-37.79400926892,"Lon":175.29315584048,"City":"Hamilton","Suburb":"Eastside"}]}},"Hot Water Beach":{"default":{"Lat":-36.8902497,"Lon":175.8221313,"Data":[{"Name":"Hot Waves Cafe","Address":"8 Pye Place","Lat":-36.8896522,"Lon":175.822519,"City":"Hot Water Beach","Suburb":"default"}]}},"Taupo":{"default":{"Lat":-38.6856924,"Lon":176.0702098,"Data":[{"Name":"Huka Prawn Park","Address":"50 Karetoto Road","Lat":-38.6337799,"Lon":176.0928851,"City":"Taupo","Suburb":"default"},{"Name":"Lake House","Address":"10 Roberts Street","Lat":-38.689453884716,"Lon":176.06959444769,"City":"Taupo","Suburb":"default"}]}},"Coromandel":{"default":{"Lat":-36.761287,"Lon":175.4981278,"Data":[{"Name":"Umu Cafe","Address":"22 Wharf Road","Lat":-36.7601281,"Lon":175.4969976,"City":"Coromandel","Suburb":"default"}]}},"Whangamata":{"default":{"Lat":-37.2072795,"Lon":175.8711518,"Data":[{"Name":"El Barrio","Address":"101 Winifred Ave","Lat":-37.2053541,"Lon":175.8732618,"City":"Whangamata","Suburb":"default"}]}},"Whitianga":{"default":{"Lat":0,"Lon":0,"Data":[{"Name":"Hot Water Brewing Co","Address":"1043 Tairua Whitianga Road","Lat":-36.916528,"Lon":175.7779654,"City":"Whitianga","Suburb":"default"}]}},"Mt Maunganui":{"default":{"Lat":-37.6386541,"Lon":176.1836273,"Data":[{"Name":"Baypark Leisure & Events","Address":"81 Truman Lane","Lat":-37.6847939,"Lon":176.2275163,"City":"Mt Maunganui","Suburb":"default"},{"Name":"Liquorland","Address":"1 Owens Place","Lat":-37.6767767,"Lon":176.2218828,"City":"Mt Maunganui","Suburb":"default"},{"Name":"New World","Address":"1 Tweed Street","Lat":-37.653952477298,"Lon":176.19926092394,"City":"Mt Maunganui","Suburb":"default"}]}},"Waihi Beach":{"default":{"Lat":-37.4123717,"Lon":175.9453393,"Data":[{"Name":"Waihi Beach Liquor Store","Address":"18 Wilson Road","Lat":-37.4116397,"Lon":175.943243,"City":"Waihi Beach","Suburb":"default"}]}},"Rotorua":{"default":{"Lat":-38.1368478,"Lon":176.2497461,"Data":[{"Name":"Liquorland","Address":"48 Koutu Road","Lat":-38.1200648,"Lon":176.2380729,"City":"Rotorua","Suburb":"default"},{"Name":"Liquorland","Address":"Cnr Te Ngae & Tarawera Road","Lat":-38.147944665327,"Lon":176.27678021844,"City":"Rotorua","Suburb":"default"}]}},"Tauranga":{"default":{"Lat":-37.6877975,"Lon":176.1651295,"Data":[{"Name":"Gilmores","Address":"1150 Cameron Road","Lat":-37.7192025,"Lon":176.1373867,"City":"Tauranga","Suburb":"default"},{"Name":"Hillsdene Wines","Address":"673 Cameron Road","Lat":-37.7013772,"Lon":176.1558332,"City":"Tauranga","Suburb":"default"},{"Name":"BREW","Address":"107 The Strand","Lat":-37.68382513614,"Lon":176.16994900615,"City":"Tauranga","Suburb":"default"}]},"Gate Pa":{"Lat":0,"Lon":0,"Data":[{"Name":"New World","Address":"948 Cameron Road","Lat":-37.7132043,"Lon":176.1429977,"City":"Tauranga","Suburb":"Gate Pa"}]},"Tauranga City":{"Lat":0,"Lon":0,"Data":[{"Name":"Pak n Save","Address":"476 Cameron Road","Lat":-37.6966817,"Lon":176.1616364,"City":"Tauranga","Suburb":"Tauranga City"}]},"Brookfield":{"Lat":0,"Lon":0,"Data":[{"Name":"New World","Address":"89 Bellevue Road","Lat":-37.68974597564,"Lon":176.13467903803,"City":"Tauranga","Suburb":"Brookfield"}]}},"Te Puke":[],"Papamoa Beach":{"default":{"Lat":-37.6971793,"Lon":176.2847173,"Data":[{"Name":"Pak n Save","Address":"42 Domain Road","Lat":-37.7018331,"Lon":176.2843472,"City":"Papamoa Beach","Suburb":"default"},{"Name":"Four Square","Address":"544 Papamoa Beach Road","Lat":-37.6976787,"Lon":176.2850135,"City":"Papamoa Beach","Suburb":"default"}]}},"Katikati":{"default":{"Lat":0,"Lon":0,"Data":[{"Name":"Four Square","Address":"37-41 Main Road","Lat":-37.555708261974,"Lon":175.91706478155,"City":"Katikati","Suburb":"default"}]}},"Ngongotaha":{"default":{"Lat":0,"Lon":0,"Data":[{"Name":"Four Square","Address":"1 Hall Street","Lat":-38.0810821,"Lon":176.2119862,"City":"Ngongotaha","Suburb":"default"}]}},"Havelock North":{"default":{"Lat":-39.670354,"Lon":176.876428,"Data":[{"Name":"New World","Address":"Porter Drive","Lat":-39.671425572466,"Lon":176.87720253334,"City":"Havelock North","Suburb":"default"}]}},"Napier":{"default":{"Lat":0,"Lon":0,"Data":[{"Name":"Westshore Beach Inn ","Address":"84 Meeanee Quay","Lat":-39.475861337407,"Lon":176.8791497963,"City":"Napier","Suburb":"default"}]}},"Gisborne":{"default":{"Lat":0,"Lon":0,"Data":[{"Name":"Four Square","Address":"53 Third Ave","Lat":-36.8827227,"Lon":174.9990511,"City":"Gisborne","Suburb":"default"},{"Name":"Four Square","Address":"262 Ormand Road","Lat":-38.6464813,"Lon":178.015028,"City":"Gisborne","Suburb":"default"},{"Name":"Four Square","Address":"106 Wainui Road","Lat":-38.670168,"Lon":178.0337067,"City":"Gisborne","Suburb":"default"},{"Name":"Four Square - Gisborne","Address":"701 Childers Road","Lat":-38.6569438,"Lon":177.9960435,"City":"Gisborne","Suburb":"default"}]}},"New Plymouth":{"default":{"Lat":-39.0556253,"Lon":174.0752278,"Data":[{"Name":"The Hour Glass","Address":"49 Liardet Street","Lat":-39.057541482772,"Lon":174.07634907791,"City":"New Plymouth","Suburb":"default"},{"Name":"Vetro Mediterranean Foods","Address":"51 Egmont Street","Lat":-39.0581296,"Lon":174.0718072,"City":"New Plymouth","Suburb":"default"},{"Name":"New World","Address":"78 Courtenay Street","Lat":-39.057826896972,"Lon":174.07773262639,"City":"New Plymouth","Suburb":"default"},{"Name":"Four Square","Address":"3 Lawry Street","Lat":-39.0633748,"Lon":174.0459109,"City":"New Plymouth","Suburb":"default"}]}},"Wanganui":{"default":{"Lat":-39.9300887,"Lon":175.0478901,"Data":[{"Name":"La Strada Restaurant","Address":"13 Victoria Avenue","Lat":-39.9347821,"Lon":175.0547867,"City":"Wanganui","Suburb":"default"},{"Name":"Four Square","Address":"59 Anzac Parade","Lat":-39.9338352,"Lon":175.0600577,"City":"Wanganui","Suburb":"default"},{"Name":"Four Square","Address":"77 Moana Street","Lat":-39.9169886,"Lon":175.0595127,"City":"Wanganui","Suburb":"default"},{"Name":"New World","Address":"374 Victoria Ave","Lat":-39.926212007327,"Lon":175.0409493914,"City":"Wanganui","Suburb":"default"}]}},"Palmerston North":{"default":{"Lat":-40.3523065,"Lon":175.6082145,"Data":[{"Name":"Cafe Royale","Address":"47 The Square","Lat":-40.3579607,"Lon":175.6110115,"City":"Palmerston North","Suburb":"default"},{"Name":"Liquorland","Address":"105 Albert Street","Lat":-40.349932379599,"Lon":175.62440792698,"City":"Palmerston North","Suburb":"default"},{"Name":"Celtic Inn","Address":"73-77 Broadway Ave","Lat":-40.353697588557,"Lon":175.61271553425,"City":"Palmerston North","Suburb":"default"},{"Name":"Pak N Save","Address":"Ferguson Street","Lat":-40.359811758005,"Lon":175.61220177407,"City":"Palmerston North","Suburb":"default"},{"Name":"New World","Address":"299 Broadway Ave","Lat":-40.3487471,"Lon":175.6242007,"City":"Palmerston North","Suburb":"default"},{"Name":"Village Inn Kitchen","Address":"360 Albert Street","Lat":-40.3632552,"Lon":175.6339287,"City":"Palmerston North","Suburb":"default"},{"Name":"Fish Cocktail Bar","Address":"769 Main Street","Lat":-40.3479417,"Lon":175.6288699,"City":"Palmerston North","Suburb":"default"},{"Name":"Champagne Bubbles & Wine Bar","Address":"58 Broadway Ave","Lat":-40.3539913,"Lon":175.6129525,"City":"Palmerston North","Suburb":"default"}]}},"Wellington":{"default":{"Lat":-41.2864603,"Lon":174.776236,"Data":[{"Name":"Embassy Theatre","Address":"Kent Terrace","Lat":-41.294257839199,"Lon":174.78405756893,"City":"Wellington","Suburb":"default"}]},"Thorndon":{"Lat":-41.2766027,"Lon":174.777766,"Data":[{"Name":"Glengarry","Address":"232 Thorndon Quay","Lat":-41.27098041456,"Lon":174.78175774537,"City":"Wellington","Suburb":"Thorndon"},{"Name":"New World","Address":"41 Murphy Street","Lat":-41.2741834,"Lon":174.7783754,"City":"Wellington","Suburb":"Thorndon"}]},"Kelburn":{"Lat":-41.289265,"Lon":174.7624754,"Data":[{"Name":"Glengarry","Address":"85 Upland Road","Lat":-41.289337254098,"Lon":174.76236422884,"City":"Wellington","Suburb":"Kelburn"},{"Name":"Kelburn Village Pub","Address":"87 Upland Road","Lat":51.4612299,"Lon":0.13893229999996,"City":"Wellington","Suburb":"Kelburn"}]},"Wellington City":{"Lat":-41.2864603,"Lon":174.776236,"Data":[{"Name":"Arizona","Address":"2 Grey Street","Lat":-41.284647829265,"Lon":174.77632305516,"City":"Wellington","Suburb":"Wellington City"},{"Name":"Bethel Woods","Address":"73 The Terrace","Lat":-41.2810631,"Lon":174.7753089,"City":"Wellington","Suburb":"Wellington City"},{"Name":"Caffe Astoria","Address":"159 Lambton Quay","Lat":-41.282438766695,"Lon":174.77685113572,"City":"Wellington","Suburb":"Wellington City"},{"Name":"Crafty Tavern","Address":"1 Courtenay Place","Lat":-41.2943229,"Lon":174.7833711,"City":"Wellington","Suburb":"Wellington City"},{"Name":"Glengarry","Address":"Shop 2\/27 Courtenay Place","Lat":-41.293946076173,"Lon":174.78217555767,"City":"Wellington","Suburb":"Wellington City"},{"Name":"Moore Wilsons","Address":"Cnr Tory and College Streets","Lat":-41.295877214711,"Lon":174.78051038413,"City":"Wellington","Suburb":"Wellington City"},{"Name":"Ancestral","Address":"31 - 33 Courtenay Place","Lat":-41.293838417151,"Lon":174.78190142698,"City":"Wellington","Suburb":"Wellington City"},{"Name":"Boulcott Street Bistro","Address":"99 Boulcott Street","Lat":-41.286165552411,"Lon":174.77389841105,"City":"Wellington","Suburb":"Wellington City"},{"Name":"Crazy Horse The Steakhouse","Address":"129 Willis Street","Lat":-41.289878783729,"Lon":174.77443580919,"City":"Wellington","Suburb":"Wellington City"},{"Name":"Dragonfly","Address":"70 Courtenay Place","Lat":-41.293182120845,"Lon":174.78057004048,"City":"Wellington","Suburb":"Wellington City"},{"Name":"Duke Carvell's Swan Lane Empor","Address":"6 Swan Lane","Lat":-41.294094098672,"Lon":174.77581396012,"City":"Wellington","Suburb":"Wellington City"},{"Name":"Fork and Brewer","Address":"14 Bond Street","Lat":-41.289242157576,"Lon":174.77565658897,"City":"Wellington","Suburb":"Wellington City"},{"Name":"Hashigo Zake","Address":"25 Taranaki Street","Lat":-41.291655138263,"Lon":174.77948664477,"City":"Wellington","Suburb":"Wellington City"},{"Name":"Cuba Liqour","Address":"145 Cuba Street","Lat":-41.293516990601,"Lon":174.77563179752,"City":"Wellington","Suburb":"Wellington City"},{"Name":"El Horno","Address":"30 Courtenay Place","Lat":-41.293582,"Lon":174.7824468,"City":"Wellington","Suburb":"Wellington City"},{"Name":"Laundry on Cuba","Address":"240 Cuba Street","Lat":-41.2961396,"Lon":174.7740804,"City":"Wellington","Suburb":"Wellington City"},{"Name":"Avida Bar","Address":"Cnr Featherston & Johnston Sts","Lat":-41.2829149,"Lon":174.7772048,"City":"Wellington","Suburb":"Wellington City"},{"Name":"Avida","Address":"Cnr Featherston and Johnston Streets","Lat":-41.282761716104,"Lon":174.77717797791,"City":"Wellington","Suburb":"Wellington City"},{"Name":"Meow","Address":"9 Edward Street","Lat":-41.290697957664,"Lon":174.77486458043,"City":"Wellington","Suburb":"Wellington City"},{"Name":"Scopa Cafe Cucina","Address":"141 Cuba Street","Lat":-41.293392642368,"Lon":174.77570741416,"City":"Wellington","Suburb":"Wellington City"},{"Name":"Sweet Mothers Kitchen","Address":"5 Courtenay Place","Lat":-41.294196774715,"Lon":174.78317887361,"City":"Wellington","Suburb":"Wellington City"},{"Name":"New World Metro","Address":"70 Willis Street","Lat":-41.287948131777,"Lon":174.77526167917,"City":"Wellington","Suburb":"Wellington City"},{"Name":"Goldings Freedive","Address":"14 Leeds Street","Lat":-41.2929104,"Lon":174.7770856,"City":"Wellington","Suburb":"Wellington City"},{"Name":"Trade Kitchen","Address":"10 Customhouse Quay","Lat":-41.2823274,"Lon":174.778393,"City":"Wellington","Suburb":"Wellington City"},{"Name":"New World","Address":"279 Wakefield Street","Lat":-41.2926569,"Lon":174.7845637,"City":"Wellington","Suburb":"Wellington City"},{"Name":"Thunderbird","Address":"154 Featherston Street","Lat":-41.28372717532,"Lon":174.77664977669,"City":"Wellington","Suburb":"Wellington City"},{"Name":"Little Beer Quarter","Address":"Edward Street","Lat":-41.290716606697,"Lon":174.77495565767,"City":"Wellington","Suburb":"Wellington City"},{"Name":"The Bruhaus","Address":"24 Willeston Street","Lat":-41.2865269,"Lon":174.7764748,"City":"Wellington","Suburb":"Wellington City"},{"Name":"Flight Coffee Hangar","Address":"171 - 177 Willis Street","Lat":-41.290909286159,"Lon":174.77388028347,"City":"Wellington","Suburb":"Wellington City"},{"Name":"The Canteen","Address":"8 Bond Street","Lat":-41.2888975,"Lon":174.7752494,"City":"Wellington","Suburb":"Wellington City"},{"Name":"Rogue and Vagabond","Address":"Garrett Street","Lat":-41.293429802131,"Lon":174.77444121038,"City":"Wellington","Suburb":"Wellington City"},{"Name":"The Malthouse","Address":"48 Courtenay Place","Lat":-41.2934327,"Lon":174.7816483,"City":"Wellington","Suburb":"Wellington City"},{"Name":"Loretta","Address":"181 Cuba St","Lat":-41.2943592,"Lon":174.77530938221,"City":"Wellington","Suburb":"Wellington City"},{"Name":"Floriditas Cafe & Restaurant","Address":"161 Cuba Street","Lat":-41.293843471442,"Lon":174.7754566871,"City":"Wellington","Suburb":"Wellington City"},{"Name":"Plum Cafe","Address":"103 Cuba Street","Lat":-41.292371632555,"Lon":174.7762747828,"City":"Wellington","Suburb":"Wellington City"},{"Name":"San Francisco Bathhouse","Address":"171 Cuba Street","Lat":-41.294040973541,"Lon":174.77537196931,"City":"Wellington","Suburb":"Wellington City"},{"Name":"Fidel's Cafe","Address":"234 Cuba St","Lat":-41.295963524844,"Lon":174.77413913684,"City":"Wellington","Suburb":"Wellington City"},{"Name":"The Crafty Tavern","Address":"1 Courtenay Place","Lat":-41.294125407864,"Lon":174.78318334537,"City":"Wellington","Suburb":"Wellington City"},{"Name":"Arthur's","Address":"272 Cuba Street","Lat":-41.296869886421,"Lon":174.77362564907,"City":"Wellington","Suburb":"Wellington City"},{"Name":"Centre City Wine & Spirit Merc","Address":"Waring Taylor St","Lat":-41.282487931678,"Lon":174.77821738109,"City":"Wellington","Suburb":"Wellington City"}]},"Island Bay":{"Lat":-41.3357294,"Lon":174.7732259,"Data":[{"Name":"New World","Address":"6 Medway Street","Lat":-41.3346838,"Lon":174.7721128,"City":"Wellington","Suburb":"Island Bay"},{"Name":"Brew'd","Address":"163 The Parade","Lat":-41.3353665,"Lon":174.7736646,"City":"Wellington","Suburb":"Island Bay"}]},"Miramar":{"Lat":-41.3168816,"Lon":174.8175657,"Data":[{"Name":"Liquorland","Address":"37 Miramar Ave","Lat":-41.3154884,"Lon":174.814805,"City":"Wellington","Suburb":"Miramar"},{"Name":"New World","Address":"48 Miramar Ave","Lat":-41.31575041288,"Lon":174.81456536323,"City":"Wellington","Suburb":"Miramar"},{"Name":"Roxy Cinema","Address":"5 Park Road","Lat":-41.3158501,"Lon":174.8162593,"City":"Wellington","Suburb":"Miramar"}]},"Newtown":{"Lat":-41.3109306,"Lon":174.7790121,"Data":[{"Name":"Baobab","Address":"152 Riddiford Street","Lat":-41.313097119648,"Lon":174.77949729081,"City":"Wellington","Suburb":"Newtown"},{"Name":"Monterey","Address":"4 Rintoul Street","Lat":-41.311840764278,"Lon":174.77903402209,"City":"Wellington","Suburb":"Newtown"},{"Name":"Bebemos","Address":"1 Hall Street","Lat":-41.3108788,"Lon":174.7781564,"City":"Wellington","Suburb":"Newtown"},{"Name":"Salvation Coffee","Address":"75 Adelaide Road","Lat":-41.303721955203,"Lon":174.77927373558,"City":"Wellington","Suburb":"Newtown"}]},"Tawa":{"Lat":-41.1703099,"Lon":174.8249146,"Data":[{"Name":"New World","Address":"35 Oxford St","Lat":-41.1699618,"Lon":174.8261102,"City":"Wellington","Suburb":"Tawa"}]},"Khandallah":{"Lat":-41.2442571,"Lon":174.7911353,"Data":[{"Name":"New World","Address":"26 Granges Rd","Lat":-41.247601366776,"Lon":174.7917172037,"City":"Wellington","Suburb":"Khandallah"},{"Name":"Automat","Address":"7 Burma Road","Lat":-41.2418695,"Lon":174.7922339,"City":"Wellington","Suburb":"Khandallah"}]},"Upper Hutt":{"Lat":-41.1244327,"Lon":175.0707834,"Data":[{"Name":"Pak n Save","Address":"Gibbons Street","Lat":-41.123405814201,"Lon":175.066054359,"City":"Wellington","Suburb":"Upper Hutt"}]},"Hutt City":{"Lat":-41.2091655,"Lon":174.9080557,"Data":[{"Name":"New World","Address":"Bloomfield Terrace","Lat":-41.209021828006,"Lon":174.90804207672,"City":"Wellington","Suburb":"Hutt City"}]},"Petone":{"Lat":-41.2270384,"Lon":174.8851015,"Data":[{"Name":"Shanghai Kitchen","Address":"85 Jackson Street","Lat":-41.2239938,"Lon":174.8745354,"City":"Wellington","Suburb":"Petone"}]},"Lyall Bay":{"Lat":-41.32699961851,"Lon":174.7953411063,"Data":[{"Name":"Maranui Cafe","Address":"The Parade","Lat":-41.330427469916,"Lon":174.7932626058,"City":"Wellington","Suburb":"Lyall Bay"}]},"Oriental Bay":{"Lat":-41.2913069,"Lon":174.7941082,"Data":[{"Name":"Beach Babylon","Address":"232 Oriental Parade","Lat":-41.2914821,"Lon":174.7940581,"City":"Wellington","Suburb":"Oriental Bay"},{"Name":"The White House Restaurant","Address":"232 Oriental Parade","Lat":-41.291454893301,"Lon":174.79406882884,"City":"Wellington","Suburb":"Oriental Bay"}]},"Te Aro":{"Lat":0,"Lon":0,"Data":[{"Name":"Heaven Woodfire Pizza","Address":"247 Cuba Street","Lat":-41.296011293079,"Lon":174.77423124782,"City":"Wellington","Suburb":"Te Aro"},{"Name":"Basque","Address":"8 Courtenay Pl","Lat":-41.2936989,"Lon":174.7834517,"City":"Wellington","Suburb":"Te Aro"},{"Name":"Crafters & Co.","Address":"211 Victoria Street","Lat":-41.294451523906,"Lon":174.77286088466,"City":"Wellington","Suburb":"Te Aro"},{"Name":"Espressoholic","Address":"136 Cuba St","Lat":-41.293446983003,"Lon":174.77552179511,"City":"Wellington","Suburb":"Te Aro"}]},"Brooklyn":{"Lat":0,"Lon":0,"Data":[{"Name":"The Salty Pidgin","Address":"5 Todman Street","Lat":-41.3054832,"Lon":174.763101,"City":"Wellington","Suburb":"Brooklyn"},{"Name":"Brooklyn Bar & Bistro","Address":"55 Cleveland Street","Lat":-41.305314913965,"Lon":174.76387925337,"City":"Wellington","Suburb":"Brooklyn"}]},"Karori":{"Lat":0,"Lon":0,"Data":[{"Name":"Cellar Room Karori","Address":"99 Karori Rd","Lat":-41.281610237882,"Lon":174.75011710245,"City":"Wellington","Suburb":"Karori"}]},"Mt Victoria":{"Lat":0,"Lon":0,"Data":[{"Name":"The Hop Garden","Address":"13 Pirie St","Lat":-41.2971748,"Lon":174.78290482454,"City":"Wellington","Suburb":"Mt Victoria"}]}},"Paraparaumu":[],"Silverstream":{"default":{"Lat":-41.1479011,"Lon":175.0121762,"Data":[{"Name":"New World","Address":"28 Whitemans Road","Lat":-41.1484404,"Lon":175.0125276,"City":"Silverstream","Suburb":"default"}]}},"Lower Hutt":{"Wingate":{"Lat":0,"Lon":0,"Data":[{"Name":"Moore Wilsons","Address":"Eastern Hutt Road","Lat":-41.188745428622,"Lon":174.95642665869,"City":"Lower Hutt","Suburb":"Wingate"}]}},"Porirua":{"default":{"Lat":-41.1338998,"Lon":174.8406006,"Data":[{"Name":"Moore Wilsons","Address":"65 Kenepuru","Lat":-41.1491418,"Lon":174.8370633,"City":"Porirua","Suburb":"default"},{"Name":"New World","Address":"Cnr Walton Leigh and Lyttelton Aves","Lat":-41.137529735575,"Lon":174.84182295634,"City":"Porirua","Suburb":"default"}]}},"Waikanae":{"default":{"Lat":-40.8755143,"Lon":175.0667946,"Data":[{"Name":"Longbeach","Address":"40 Tutere Street","Lat":-40.8619422,"Lon":175.0237606,"City":"Waikanae","Suburb":"default"},{"Name":"Melt Cafe","Address":"150 Te Moana Road","Lat":-40.8691895,"Lon":175.0356536,"City":"Waikanae","Suburb":"default"}]}},"Martinborough":{"default":{"Lat":-41.2190932,"Lon":175.4600651,"Data":[{"Name":"Cool Change","Address":"8 Memorial Square","Lat":-41.218015514163,"Lon":175.45928400185,"City":"Martinborough","Suburb":"default"},{"Name":"Four Square","Address":"27 Jellicoe Street","Lat":-41.2196361,"Lon":175.4581466,"City":"Martinborough","Suburb":"default"},{"Name":"Micro Wine Bar","Address":"14 Ohio Street","Lat":-41.217416098331,"Lon":175.45863113677,"City":"Martinborough","Suburb":"default"},{"Name":"Fresh Choice - Greytown","Address":"12 Hastwell St","Lat":0,"Lon":0,"City":"Martinborough","Suburb":"default"}]}},"Blenheim":{"default":{"Lat":-41.5134425,"Lon":173.9612498,"Data":[{"Name":"Scotch Wine Bar","Address":"26 Maxwell Road","Lat":-41.514416263512,"Lon":173.95595963432,"City":"Blenheim","Suburb":"default"},{"Name":"Dodson Street Beer Garden","Address":"1 Dodson Street","Lat":-41.501402,"Lon":173.9598255,"City":"Blenheim","Suburb":"default"}]}},"Greytown":[],"Picton":{"default":{"Lat":0,"Lon":0,"Data":[{"Name":"Fresh Choice","Address":"Mariners Mall","Lat":-41.292281431438,"Lon":174.00696426843,"City":"Picton","Suburb":"default"}]}},"Nelson":{"default":{"Lat":-41.2706319,"Lon":173.2839653,"Data":[{"Name":"Fresh Choice","Address":"68 Collingwood Street","Lat":-41.2708026,"Lon":173.2869927,"City":"Nelson","Suburb":"default"},{"Name":"Deville","Address":"22 New St","Lat":-41.271824765742,"Lon":173.28557103373,"City":"Nelson","Suburb":"default"}]},"Takaka":{"Lat":0,"Lon":0,"Data":[{"Name":"Fresh Choice","Address":"13 Willow Street","Lat":-40.861921444182,"Lon":172.80634938518,"City":"Nelson","Suburb":"Takaka"}]}},"Richmond":{"default":{"Lat":-41.33820394283,"Lon":173.18328590242,"Data":[{"Name":"Fresh Choice","Address":"Queen Street","Lat":-41.340296895277,"Lon":173.18596586068,"City":"Richmond","Suburb":"default"}]}},"Westport":{"default":{"Lat":-41.7545216,"Lon":171.6058903,"Data":[{"Name":"New World","Address":"244 Palmerston Street","Lat":-41.7575473,"Lon":171.5988401,"City":"Westport","Suburb":"default"}]}},"Christchurch":{"default":{"Lat":-43.5320544,"Lon":172.6362254,"Data":[{"Name":"Hello Sunday","Address":"6 Elgin St","Lat":-43.5460192,"Lon":172.6341798,"City":"Christchurch","Suburb":"default"},{"Name":"Kaizuka Eatery & Garden Bar","Address":"91 Centaurus Road","Lat":-43.566943515261,"Lon":172.64676603558,"City":"Christchurch","Suburb":"default"},{"Name":"Hello Sunday","Address":"6 Elgin Street","Lat":-43.5460192,"Lon":172.6341798,"City":"Christchurch","Suburb":"default"}]},"Lyttelton":{"Lat":0,"Lon":0,"Data":[{"Name":"Tommy Changs","Address":"London Street","Lat":-43.6021844,"Lon":172.7201817,"City":"Christchurch","Suburb":"Lyttelton"}]},"Spreydon":{"Lat":0,"Lon":0,"Data":[{"Name":"Fresh Choice - Barrington","Address":"256 Barrington Street","Lat":-43.5568945,"Lon":172.6187043,"City":"Christchurch","Suburb":"Spreydon"}]},"Parklands":{"Lat":0,"Lon":0,"Data":[{"Name":"Fresh Choice - Parklands","Address":"60 Queenspark Drive","Lat":-43.481448064639,"Lon":172.70586604551,"City":"Christchurch","Suburb":"Parklands"}]},"Fendalton":{"Lat":0,"Lon":0,"Data":[{"Name":"New World","Address":"19-23 Memorial Drive","Lat":-43.517628393938,"Lon":172.58847501964,"City":"Christchurch","Suburb":"Fendalton"}]},"Christchurch City":{"Lat":0,"Lon":0,"Data":[{"Name":"Curators House Restaurant","Address":"7 Rolleston Ave","Lat":-43.532679192043,"Lon":172.62713940734,"City":"Christchurch","Suburb":"Christchurch City"},{"Name":"Hotel Montreal","Address":"363 Montreal Street","Lat":-43.5257649,"Lon":172.6305559,"City":"Christchurch","Suburb":"Christchurch City"},{"Name":"Pepperoni Restaurant","Address":"Madras Street","Lat":-43.538082386053,"Lon":172.64232519259,"City":"Christchurch","Suburb":"Christchurch City"},{"Name":"New World","Address":"555 Columbo Street","Lat":-43.538506994398,"Lon":172.63441523544,"City":"Christchurch","Suburb":"Christchurch City"},{"Name":"Vino Fino","Address":"188 Durham Street","Lat":-43.536882,"Lon":172.633904,"City":"Christchurch","Suburb":"Christchurch City"},{"Name":"Pomeroys Old Brewery Inn","Address":"292 Kilmore Street","Lat":-43.526653775955,"Lon":172.64974574048,"City":"Christchurch","Suburb":"Christchurch City"},{"Name":"Cookin With Gas","Address":"23 Worcester Boulevard","Lat":-43.5308152,"Lon":172.6291979,"City":"Christchurch","Suburb":"Christchurch City"}]},"Harewood":{"Lat":0,"Lon":0,"Data":[{"Name":"Cafe Raeward","Address":"800 Harewood Road","Lat":-43.4782625,"Lon":172.5548767,"City":"Christchurch","Suburb":"Harewood"},{"Name":"Raeward Fresh","Address":"800 Harewood Road","Lat":-43.4782625,"Lon":172.5548767,"City":"Christchurch","Suburb":"Harewood"}]},"Woolston":{"Lat":0,"Lon":0,"Data":[{"Name":"Cassels & Sons Brewery","Address":"3 Garlands Road","Lat":-43.5568143,"Lon":172.680258,"City":"Christchurch","Suburb":"Woolston"}]},"Halswell":{"Lat":0,"Lon":0,"Data":[{"Name":"New World","Address":"346 Halswell Road","Lat":-43.5797425,"Lon":172.5668838,"City":"Christchurch","Suburb":"Halswell"}]},"St Martins":{"Lat":0,"Lon":0,"Data":[{"Name":"New World","Address":"96 Wilson Road","Lat":-43.5576213,"Lon":172.6545518,"City":"Christchurch","Suburb":"St Martins"}]},"Ilam":{"Lat":0,"Lon":0,"Data":[{"Name":"New World","Address":"47c\/57 Peer Street","Lat":-43.5250415,"Lon":172.5693356,"City":"Christchurch","Suburb":"Ilam"}]},"Riccarton":{"Lat":0,"Lon":0,"Data":[{"Name":"Decant","Address":null,"Lat":-43.5330826,"Lon":172.6062481,"City":"Christchurch","Suburb":"Riccarton"}]},"Sumner":{"Lat":0,"Lon":0,"Data":[{"Name":"Beach Bar","Address":"52 The Esplanade","Lat":-43.5690509,"Lon":172.760906,"City":"Christchurch","Suburb":"Sumner"}]},"Little River":{"Lat":0,"Lon":0,"Data":[{"Name":"Hilltop Cafe & Bar","Address":"5207 Christchurch Akaroa Road","Lat":-43.7500938,"Lon":172.8713301,"City":"Christchurch","Suburb":"Little River"}]},"St Albans":{"Lat":0,"Lon":0,"Data":[{"Name":"Liquor King","Address":"153 Cranford Street","Lat":-43.506888675465,"Lon":172.6364864037,"City":"Christchurch","Suburb":"St Albans"}]},"Merivale":{"Lat":0,"Lon":0,"Data":[{"Name":"Fresh Choice - Merivale","Address":"Merivale Mall","Lat":-43.512276555635,"Lon":172.62175810318,"City":"Christchurch","Suburb":"Merivale"}]}},"Hanmer Springs":{"default":{"Lat":-42.5262427,"Lon":172.8288246,"Data":[{"Name":"Whatever!","Address":"1\/5 Conical Hill Road","Lat":-42.5203655,"Lon":172.8303315,"City":"Hanmer Springs","Suburb":"default"}]}},"Timaru":{"default":{"Lat":-44.3969718,"Lon":171.2549729,"Data":[{"Name":"Zest","Address":"4A Elizabeth Street","Lat":-44.394994126529,"Lon":171.24922526627,"City":"Timaru","Suburb":"default"}]}},"Twizel":{"default":{"Lat":-44.2599014,"Lon":170.1042942,"Data":[{"Name":"Shawtys","Address":"4 Market Place","Lat":-44.2574547,"Lon":170.0981006,"City":"Twizel","Suburb":"default"}]}},"Lincoln":{"default":{"Lat":-43.6400869,"Lon":172.4842487,"Data":[{"Name":"Super Liquor","Address":"8 Gerald Street","Lat":-43.6400886,"Lon":172.4839873,"City":"Lincoln","Suburb":"default"}]}},"Geraldine":{"default":{"Lat":-44.0911852,"Lon":171.2437353,"Data":[{"Name":"Fresh Choice - Geraldine","Address":"Peel Street","Lat":-44.091045117775,"Lon":171.24218418773,"City":"Geraldine","Suburb":"default"}]}},"Rangiora":{"default":{"Lat":-43.303356,"Lon":172.5957246,"Data":[{"Name":"New World","Address":"Good Street","Lat":-43.302432618879,"Lon":172.59461012712,"City":"Rangiora","Suburb":"default"}]}},"Kaikoura":{"default":{"Lat":0,"Lon":0,"Data":[{"Name":"Beach House Cafe Kaikoura","Address":"39 Beach Road","Lat":-42.3960664,"Lon":173.6790381,"City":"Kaikoura","Suburb":"default"}]}},"Queenstown":{"default":{"Lat":-45.0311622,"Lon":168.6626435,"Data":[{"Name":"Atlas","Address":"Beach Street","Lat":-45.033618998704,"Lon":168.65761904534,"City":"Queenstown","Suburb":"default"},{"Name":"Rata Dining","Address":"43 Ballarat Street","Lat":-45.031372878872,"Lon":168.66249008584,"City":"Queenstown","Suburb":"default"},{"Name":"Betty's","Address":"26 Camp Street","Lat":-45.031625,"Lon":168.6613344,"City":"Queenstown","Suburb":"default"},{"Name":"Betty's","Address":"17 Rees Street","Lat":-45.0322279,"Lon":168.6599064,"City":"Queenstown","Suburb":"default"},{"Name":"Betty's","Address":"43 Beach Street","Lat":-45.0322072,"Lon":168.6591808,"City":"Queenstown","Suburb":"default"},{"Name":"Betty's","Address":"1095 Frankton Road","Lat":-45.0156585,"Lon":168.7315225,"City":"Queenstown","Suburb":"default"},{"Name":"Betty's","Address":"1085","Lat":-45.016211948727,"Lon":168.73057670622,"City":"Queenstown","Suburb":"default"}]}},"Dunedin":{"St Clair":{"Lat":0,"Lon":0,"Data":[{"Name":"Starfish Cafe & Bar","Address":"7\/240 Forbury Road","Lat":-45.911377547327,"Lon":170.49015072394,"City":"Dunedin","Suburb":"St Clair"}]},"Roslyn":{"Lat":0,"Lon":0,"Data":[{"Name":"Fresh Choice","Address":"279 Highgate","Lat":-45.8674454,"Lon":170.4891288,"City":"Dunedin","Suburb":"Roslyn"}]},"Dunedin City":{"Lat":0,"Lon":0,"Data":[{"Name":"Velvet Burger","Address":"375 George Street","Lat":-45.8683663,"Lon":170.5066351,"City":"Dunedin","Suburb":"Dunedin City"},{"Name":"Castle MacAdam Wine","Address":"40 Stuart Steet","Lat":-45.875023766675,"Lon":170.5071000914,"City":"Dunedin","Suburb":"Dunedin City"}]}},"Wanaka":{"default":{"Lat":-44.6968866,"Lon":169.1314258,"Data":[{"Name":"Cinema Paradiso","Address":"72 Brownston Street","Lat":-44.697424235576,"Lon":169.13581078161,"City":"Wanaka","Suburb":"default"},{"Name":"Kai Whakapai Cafe & bar","Address":"Cnr Helwick And Ardmore Streets","Lat":-44.695310139739,"Lon":169.13488453348,"City":"Wanaka","Suburb":"default"},{"Name":"New World","Address":"20 Dunmore Street","Lat":-44.6964383,"Lon":169.1350514,"City":"Wanaka","Suburb":"default"},{"Name":"Pembroke Wines & Spirits","Address":"24 Dungarvon Street","Lat":-44.6971973,"Lon":169.1345197,"City":"Wanaka","Suburb":"default"},{"Name":"Betty's","Address":"33 Ardmore Street","Lat":-44.6943534,"Lon":169.1394576,"City":"Wanaka","Suburb":"default"}]}},"Oamaru":{"default":{"Lat":-45.0975118,"Lon":170.9704148,"Data":[{"Name":"Riverstone Kitchen","Address":"1431 State Highway 1","Lat":-44.9607906,"Lon":171.080864,"City":"Oamaru","Suburb":"default"},{"Name":"Scotts Brewing Co.","Address":"1 Wansbeck St","Lat":-45.104566336036,"Lon":170.9699760043,"City":"Oamaru","Suburb":"default"}]}},"Arrowtown":{"default":{"Lat":-44.9416876,"Lon":168.8358624,"Data":[{"Name":"La Rumbla","Address":"54 Buckingham Street","Lat":-44.9387617,"Lon":168.8329483,"City":"Arrowtown","Suburb":"default"},{"Name":"Betty's","Address":"48 Buckingham Street","Lat":-44.9387528,"Lon":168.8326489,"City":"Arrowtown","Suburb":"default"}]}},"Frankton":{"default":{"Lat":-45.0166667,"Lon":168.7333333,"Data":[{"Name":"Betty's","Address":"Remarkables Park","Lat":-45.025748171126,"Lon":168.74283666815,"City":"Frankton","Suburb":"default"}]}},"Alexandra":{"default":{"Lat":-45.2491667,"Lon":169.3797222,"Data":[{"Name":"New World","Address":"89 Centennial Ave","Lat":-45.2500331,"Lon":169.3867946,"City":"Alexandra","Suburb":"default"}]}},"Te Anau":[]}